MOE_Code;MOE_Name;Address;Contact Person;Telephone;Telephone_Alt1;Telephone_Alt2;Email;Website;Year Opened;Longitude;Latitude;Area Administrative;Locality;Type;Ownership;Sector;School Administrator 1;School Administrator 2
V10001;ITVET- Belize;Belize City;Denroy Tillett;203-4798;;;cetbze@yahoo.com;;2007;-88.19242732;17.50313465;Belize;Urban;Vocational;Government Schools;Government;;
V20001;Cayo CET;San Igancio;Edilto Romero (Acting);824-2944;;;eromero@cayocet.bz;;2007;-89.0715382;17.1512794;Cayo;Urban;Vocational;Community Schools;Specially Assisted;;
V30101;ITVET- Corozal;Corozal Town;Ana Gomez;402-0149;;;corozal.itvet@moe.gov.bz;;2007;-88.402469;18.4060471;Corozal;Urban;Vocational;Government Schools;Government;;
V40001;ITVET- Orange Walk;Orange Walk Town;Armando J. Gomez;302-0309;;;ajgomez133@gmail.com;;2007;-88.5746002;18.0984573;Orange Walk;Urban;Vocational;Government Schools;Government;;
V50101;ITVET- Stann Creek;Hope Creek Village, SC;Roxanna Alvarez;502-0859;;;stanncreek.itvet@moe.gov.bz;;2007;-88.3156433;16.9971618;Stann Creek;Urban;Vocational;Government Schools;Government;;
V60101;ITVET- Toledo;Crique Jute Village, Toledo;Allen Genus;742-4774;;;itvettoledo@yahoo.com;;2014;-89.022008;16.281018;Toledo;Urban;Vocational;Government Schools;Government;;
